{
  "extent": {
    "lon_min": -40,
    "lat_min": 35,
    "lon_max": 15,
    "lat_max": 68
  },
  "image_size": {
    "width": 3667,
    "height": 2200
  },
  "areas": [
    {
      "name": "Bailey",
      "lon": -12.500000000500307,
      "lat": 60.20768232800005,
      "x": 1832.9999999666522,
      "y": 519.2517139614514,
      "gale": true,
      "gale_text": "Gale warning\nIssued:\n21:55 (UTC) on Thu 22 Jan 2026\nSoutheasterly gale force 8 continuing"
    },
    {
      "name": "Cromarty",
      "lon": -2.4589875402499803,
      "lat": 57.750491731,
      "x": 2502.2791214080653,
      "y": 682.9899601070002,
      "gale": true,
      "gale_text": "Gale warning\nIssued:\n21:55 (UTC) on Thu 22 Jan 2026\nSoutheasterly severe gale force 9 now decreased gale force 8"
    },
    {
      "name": "Dogger",
      "lon": 1.9375,
      "lat": 55.125,
      "x": 2795.325,
      "y": 857.9431818181818,
      "gale": true,
      "gale_text": "Gale warning\nIssued:\n09:53 (UTC) on Fri 23 Jan 2026\nSoutheasterly gale force 8 continuing"
    },
    {
      "name": "Dover",
      "lon": 0.9493371297009477,
      "lat": 50.70358979050005,
      "x": 2729.4594530451577,
      "y": 1152.5698803239516,
      "gale": false,
      "gale_text": null
    },
    {
      "name": "Faeroes",
      "lon": -7.2511222262524475,
      "lat": 61.4171778410001,
      "x": 2182.8615621556096,
      "y": 438.6553311406299,
      "gale": true,
      "gale_text": "Gale warning\nIssued:\n03:50 (UTC) on Fri 23 Jan 2026\nSoutheasterly severe gale force 9 now decreased gale force 8"
    },
    {
      "name": "Fair Isle",
      "lon": -3.0212042380984627,
      "lat": 60.1392036430001,
      "x": 2464.804822966019,
      "y": 523.8148845164478,
      "gale": true,
      "gale_text": "Gale warning\nIssued:\n09:53 (UTC) on Fri 23 Jan 2026\nSoutheasterly severe gale force 9 decreasing gale force 8 imminent"
    },
    {
      "name": "Fastnet",
      "lon": -8.125140204885216,
      "lat": 51.289964965500104,
      "x": 2124.604291070742,
      "y": 1113.4959709353113,
      "gale": true,
      "gale_text": "Gale warning\nIssued:\n09:53 (UTC) on Fri 23 Jan 2026\nEasterly gale force 8 increasing severe gale force 9 soon"
    },
    {
      "name": "Fisher",
      "lon": 6.143134874000014,
      "lat": 56.875017420000106,
      "x": 3075.6496808742554,
      "y": 741.3283846490839,
      "gale": true,
      "gale_text": "Gale warning\nIssued:\n15:53 (UTC) on Fri 23 Jan 2026\nSoutheasterly severe gale force 9 decreasing gale force 8 soon"
    },
    {
      "name": "FitzRoy",
      "lon": -10.62576678799995,
      "lat": 46.04365322100005,
      "x": 1957.9261628216761,
      "y": 1463.0911080915423,
      "gale": true,
      "gale_text": "Gale warning\nIssued:\n15:53 (UTC) on Fri 23 Jan 2026\nStorm force 10 decreasing severe gale force 9 imminent, veering northwesterly and increasing storm force 10 soon"
    },
    {
      "name": "Forth",
      "lon": -1.8433708094875,
      "lat": 56.325641984,
      "x": 2543.312774771251,
      "y": 777.9367659752727,
      "gale": true,
      "gale_text": "Gale warning\nIssued:\n09:53 (UTC) on Fri 23 Jan 2026\nSoutheasterly gale force 8 continuing"
    },
    {
      "name": "Forties",
      "lon": 1.5,
      "lat": 57.25,
      "x": 2766.163636363636,
      "y": 716.340909090909,
      "gale": true,
      "gale_text": "Gale warning\nIssued:\n15:53 (UTC) on Fri 23 Jan 2026\nSoutheasterly severe gale force 9 decreasing gale force 8 soon"
    },
    {
      "name": "German Bight",
      "lon": 6.329994912357175,
      "lat": 54.39521692550005,
      "x": 3088.104751794571,
      "y": 906.5732721462239,
      "gale": true,
      "gale_text": "Gale warning\nIssued:\n15:53 (UTC) on Fri 23 Jan 2026\nEasterly gale force 8 continuing"
    },
    {
      "name": "Hebrides",
      "lon": -7.660506846716651,
      "lat": 58.790475933500105,
      "x": 2155.574216362487,
      "y": 613.6891946131293,
      "gale": true,
      "gale_text": "Gale warning\nIssued:\n03:50 (UTC) on Fri 23 Jan 2026\nSoutheasterly gale force 8 continuing"
    },
    {
      "name": "Humber",
      "lon": 2.3775439614535214,
      "lat": 53.49949032600005,
      "x": 2824.655930230702,
      "y": 966.2612355492694,
      "gale": false,
      "gale_text": null
    },
    {
      "name": "Irish Sea",
      "lon": -4.586930352210652,
      "lat": 53.5004243685001,
      "x": 2360.4420605235596,
      "y": 966.1989943535843,
      "gale": true,
      "gale_text": "Gale warning\nIssued:\n21:55 (UTC) on Thu 22 Jan 2026\nEasterly gale force 8 expected later"
    },
    {
      "name": "Lundy",
      "lon": -4.627820645164852,
      "lat": 51.249351957500096,
      "x": 2357.7165366331938,
      "y": 1116.2022741047663,
      "gale": true,
      "gale_text": "Gale warning\nIssued:\n09:53 (UTC) on Fri 23 Jan 2026\nEasterly gale force 8 increasing severe gale force 9 soon"
    },
    {
      "name": "Malin",
      "lon": -7.858326169987823,
      "lat": 55.5690157085001,
      "x": 2142.388659287721,
      "y": 828.3555896063114,
      "gale": true,
      "gale_text": "Gale warning\nIssued:\n09:53 (UTC) on Fri 23 Jan 2026\nSoutheasterly gale force 8 continuing"
    },
    {
      "name": "Plymouth",
      "lon": -4.8797335328166165,
      "lat": 49.3641670790001,
      "x": 2340.9253976126233,
      "y": 1241.8241391902664,
      "gale": true,
      "gale_text": "Gale warning\nIssued:\n15:53 (UTC) on Fri 23 Jan 2026\nStorm force 10 decreasing severe gale force 9 imminent, veering southwesterly and decreasing gale force 8 soon"
    },
    {
      "name": "Portland",
      "lon": -2.676865542887798,
      "lat": 49.61468528450005,
      "x": 2487.756562177697,
      "y": 1225.1305169510422,
      "gale": true,
      "gale_text": "Gale warning\nIssued:\n15:53 (UTC) on Fri 23 Jan 2026\nSevere gale force 9 veering southerly and decreasing gale force 8 soon"
    },
    {
      "name": "Rockall",
      "lon": -12.499621523722851,
      "lat": 55.760881423950195,
      "x": 1833.0252271642187,
      "y": 815.5703560222279,
      "gale": false,
      "gale_text": null
    },
    {
      "name": "Shannon",
      "lon": -12.582270157291848,
      "lat": 51.762720115,
      "x": 1827.516320061238,
      "y": 1081.9932868822727,
      "gale": true,
      "gale_text": "Gale warning\nIssued:\n09:53 (UTC) on Fri 23 Jan 2026\nGale now ceased but northwesterly gale force 8 expected later"
    },
    {
      "name": "Sole",
      "lon": -10.625,
      "lat": 49.236251666499996,
      "x": 1957.9772727272725,
      "y": 1250.3479571323185,
      "gale": true,
      "gale_text": "Gale warning\nIssued:\n09:53 (UTC) on Fri 23 Jan 2026\nGale force 8 backing northwesterly and increasing severe gale force 9 later"
    },
    {
      "name": "Southeast Iceland",
      "lon": -12.333747699225185,
      "lat": 63.0821856955001,
      "x": 1844.0814715389176,
      "y": 327.70526229076603,
      "gale": true,
      "gale_text": "Gale warning\nIssued:\n09:53 (UTC) on Fri 23 Jan 2026\nSoutheasterly gale force 8 continuing"
    },
    {
      "name": "South Utsire",
      "lon": 5.0230465228549015,
      "lat": 58.37721943550005,
      "x": 3000.9907009597464,
      "y": 641.2271048889511,
      "gale": true,
      "gale_text": "Gale warning\nIssued:\n15:53 (UTC) on Fri 23 Jan 2026\nSoutheasterly severe gale force 9 decreasing gale force 8 soon"
    },
    {
      "name": "Thames",
      "lon": 2.750660060707405,
      "lat": 51.988296187000046,
      "x": 2849.5258142282423,
      "y": 1066.9617177208152,
      "gale": false,
      "gale_text": null
    },
    {
      "name": "Tyne",
      "lon": -0.808768595788499,
      "lat": 55.119202289,
      "x": 2612.2737150516245,
      "y": 858.3295201966364,
      "gale": true,
      "gale_text": "Gale warning\nIssued:\n09:53 (UTC) on Fri 23 Jan 2026\nSoutheasterly gale force 8 continuing"
    },
    {
      "name": "Viking",
      "lon": 1.99916302150001,
      "lat": 59.750010633500054,
      "x": 2799.435120669437,
      "y": 549.7492914222237,
      "gale": true,
      "gale_text": "Gale warning\nIssued:\n15:53 (UTC) on Fri 23 Jan 2026\nSoutheasterly severe gale force 9 decreasing gale force 8 imminent"
    },
    {
      "name": "Wight",
      "lon": -0.24590197421684934,
      "lat": 50.093147651500104,
      "x": 2649.7913338640187,
      "y": 1193.2475246773113,
      "gale": true,
      "gale_text": "Gale warning\nIssued:\n09:53 (UTC) on Fri 23 Jan 2026\nGale now ceased but southeasterly gale force 8 expected soon"
    },
    {
      "name": "Biscay",
      "lon": -3.680382939749977,
      "lat": 45.869279561,
      "x": 2420.8675662341197,
      "y": 1474.710734707909,
      "gale": true,
      "gale_text": "Gale warning\nIssued:\n15:53 (UTC) on Fri 23 Jan 2026\nSouthwesterly storm force 10, decreasing severe gale force 9 imminent, decreasing gale force 8 soon"
    },
    {
      "name": "Trafalgar",
      "lon": -11.921897238443698,
      "lat": 38.0140501120001,
      "x": 1871.5331767975526,
      "y": 1998.154660718539,
      "gale": true,
      "gale_text": "Gale warning\nIssued:\n15:53 (UTC) on Fri 23 Jan 2026\nNorthwesterly severe gale force 9 increasing storm force 10 soon\nForecast issued:\n00:15 (UTC) on Fri 23 Jan 2026"
    },
    {
      "name": "North Utsire",
      "lon": 4.881155173756339,
      "lat": 59.9999493715,
      "x": 2991.53299758165,
      "y": 533.0942827900454,
      "gale": false,
      "gale_text": null
    }
  ],
  "generated_utc": "2026-01-23T21:00:51Z"
}